city,lat,lng,temp,humidity,cloudiness,windspeed,country,date
Barrow,71.29,-156.79,35.6,74,90,17.22,US,1600807802
Srednekolymsk,67.45,153.68,39.45,92,100,2.55,RU,1600807837
Svetlaya,46.54,138.33,55.51,82,83,6.82,RU,1600808005
Bako,5.78,36.57,70.29,60,71,2.26,ET,1600808005
Sioux Lookout,50.1,-91.92,71.6,49,40,6.93,CA,1600807787
Mataura,-46.19,168.86,53.01,90,70,7.0,NZ,1600808006
Isangel,-19.55,169.27,69.8,88,20,13.18,VU,1600808006
Tuatapere,-46.13,167.68,53.01,90,40,7.0,NZ,1600808006
Springfield,37.22,-93.3,69.58,73,90,4.7,US,1600807860
Castro,-24.79,-50.01,57.52,73,41,9.95,BR,1600807873
East London,-33.02,27.91,60.84,72,2,9.26,ZA,1600808007
Arraial do Cabo,-22.97,-42.03,66.2,93,90,13.87,BR,1600807803
Hilo,19.73,-155.09,79.38,65,90,3.36,US,1600807785
Altay,47.87,88.12,52.66,50,23,4.27,CN,1600808007
Catia La Mar,10.6,-67.03,91.4,59,20,8.05,VE,1600808007
Hong Kong,22.29,114.16,81.46,80,80,11.16,HK,1600807752
Dongsheng,39.82,109.98,50.34,87,79,3.51,CN,1600808008
Saint Paul Harbor,57.79,-152.41,51.8,81,90,19.46,US,1600807882
Jutaí,-5.18,-68.9,87.42,58,79,3.94,BR,1600808008
Alofi,-19.06,-169.92,68.85,89,100,17.43,NU,1600808008
Yumen,40.28,97.2,49.96,47,0,1.99,CN,1600807841
Thompson,55.74,-97.86,53.6,71,90,11.41,CA,1600807919
Ndélé,8.41,20.65,72.36,93,100,1.12,CF,1600808009
Port Alfred,-33.59,26.89,58.23,75,0,5.75,ZA,1600808009
Nikolskoye,59.7,30.79,53.31,81,95,4.47,RU,1600808009
Atbasar,51.8,68.33,39.07,93,30,9.42,KZ,1600808009
Hermanus,-34.42,19.23,55.0,87,14,1.01,ZA,1600808009
Lethem,3.38,-59.8,91.96,52,50,2.98,GY,1600808009
Leningradskiy,69.38,178.42,39.52,83,100,17.22,RU,1600808010
Te Anau,-45.42,167.72,52.48,87,41,4.85,NZ,1600808010
Cayenne,4.93,-52.33,86.0,70,8,11.41,GF,1600808010
Katsuura,35.13,140.3,68.59,94,75,12.75,JP,1600807898
Rikitea,-23.12,-134.97,72.72,75,99,17.85,PF,1600807821
El Cobre,20.05,-75.95,86.0,70,75,4.7,CU,1600808010
Asău,46.43,26.4,54.0,84,8,3.29,RO,1600808010
Port Hedland,-20.32,118.57,66.2,24,0,6.93,AU,1600807843
Ushuaia,-54.8,-68.3,44.6,74,40,19.46,AR,1600807867
Taldan,53.67,124.8,44.11,96,100,6.13,RU,1600808011
George Town,5.41,100.34,77.0,94,40,5.82,MY,1600808011
Pevek,69.7,170.31,38.1,90,100,19.86,RU,1600807780
Talnakh,69.49,88.4,51.8,76,75,26.84,RU,1600808011
Ponta do Sol,32.67,-17.1,74.34,69,20,4.7,PT,1600808011
Noshiro,40.2,140.02,61.66,80,0,8.72,JP,1600808012
Hudiksvall,61.73,17.1,49.32,89,92,7.18,SE,1600808012
Faanui,-16.48,-151.75,77.95,78,5,17.58,PF,1600808012
New Norfolk,-42.78,147.06,46.09,79,77,5.93,AU,1600808012
Yamada,39.47,141.95,64.33,84,100,2.44,JP,1600808012
Vaini,-21.2,-175.2,73.4,83,75,10.29,TO,1600808012
Guerrero Negro,27.98,-114.06,87.93,35,0,11.74,MX,1600808013
Dikson,73.51,80.55,41.05,88,68,14.65,RU,1600808013
Atuona,-9.8,-139.03,78.57,72,91,19.51,PF,1600807812
Montauban,44.02,1.35,64.54,82,97,3.36,FR,1600808013
Husavik,66.04,-17.34,35.6,91,75,5.82,IS,1600808015
San Patricio,19.22,-104.7,91.4,70,40,13.87,MX,1600807851
Port Macquarie,-31.43,152.92,52.45,97,0,1.57,AU,1600807879
Ribeira Grande,38.52,-28.7,69.8,73,40,16.11,PT,1600808016
Busselton,-33.65,115.33,46.53,77,53,8.16,AU,1600808016
Esperance,-33.87,121.9,46.4,100,75,6.93,AU,1600808016
Gaoual,11.75,-13.2,76.35,91,5,3.22,GN,1600808016
Lugoba,-6.45,38.33,72.72,82,25,2.19,TZ,1600808017
Udachny,66.42,112.4,41.0,65,0,4.47,RU,1600808017
Nyurba,63.28,118.33,40.68,83,0,3.96,RU,1600808017
Cherskiy,68.75,161.3,36.32,81,99,5.91,RU,1600807858
Yellowknife,62.46,-114.35,52.11,81,20,20.8,CA,1600808017
Carnarvon,-24.87,113.63,53.6,66,0,8.05,AU,1600808017
Constantine,36.37,6.61,69.8,83,40,4.7,DZ,1600808017
Yushu,44.8,126.53,49.15,98,30,1.92,CN,1600808018
Kaitangata,-46.28,169.85,55.99,74,65,3.0,NZ,1600808018
Tabuleiro do Norte,-5.25,-38.13,81.45,61,1,13.62,BR,1600808018
Yenagoa,4.92,6.26,75.27,94,99,3.83,NG,1600808018
Port Lincoln,-34.73,135.87,52.05,80,5,15.88,AU,1600808018
Ayan,56.45,138.17,51.1,68,45,5.61,RU,1600808019
Lorengau,-2.02,147.27,81.9,80,88,9.08,PG,1600808019
Butaritari,3.07,172.79,83.16,77,2,18.52,KI,1600808019
Cape Town,-33.93,18.42,57.45,87,0,13.87,ZA,1600807990
Jamestown,42.1,-79.24,63.73,51,1,8.05,US,1600808019
Bonthe,7.53,-12.51,78.15,86,27,5.44,SL,1600808019
Puerto Escondido,15.85,-97.07,87.8,62,5,6.93,MX,1600808019
Zhadovka,53.57,46.95,54.3,80,89,14.65,RU,1600808020
Bluff,-46.6,168.33,53.01,90,51,7.0,NZ,1600808020
Włoszczowa,50.85,19.97,58.32,76,0,4.92,PL,1600808020
Najrān,17.49,44.13,82.4,13,82,5.82,SA,1600808021
Saskylakh,71.92,114.08,42.44,73,0,14.36,RU,1600808022
Naze,28.37,129.48,80.6,88,20,17.22,JP,1600808022
Xining,36.62,101.77,49.32,72,91,2.21,CN,1600808022
Tiksi,71.69,128.87,41.83,74,44,19.46,RU,1600807783
Chokurdakh,70.63,147.92,40.96,94,100,8.5,RU,1600808022
Port Hawkesbury,45.62,-61.35,53.49,93,90,20.8,CA,1600808023
Laurel,39.1,-76.85,69.84,28,1,6.93,US,1600808023
Adrar,20.5,-10.07,99.39,14,27,8.16,MR,1600808023
Albany,42.6,-73.97,67.91,28,0,4.0,US,1600808023
Galveston,29.37,-94.97,81.45,74,75,13.87,US,1600808024
Aklavik,68.22,-135.01,41.0,86,75,2.19,CA,1600808024
Kotovo,50.32,44.8,54.54,68,39,9.19,RU,1600808024
São Filipe,14.9,-24.5,80.71,81,13,7.31,CV,1600807901
Huilong,31.81,121.66,72.0,84,100,10.8,CN,1600807934
Navalmoral de la Mata,39.89,-5.54,66.99,65,86,3.91,ES,1600808024
Airai,-8.93,125.41,58.35,93,0,2.48,TL,1600808025
Saint-Pierre,-21.34,55.48,59.0,63,5,5.82,RE,1600808025
Kiryat Gat,31.61,34.76,76.05,77,2,3.96,IL,1600807759
Ahipara,-35.17,173.17,60.22,81,33,10.07,NZ,1600807753
Shingū,33.73,135.98,69.89,89,100,19.69,JP,1600808025
Longyearbyen,78.22,15.64,33.8,74,40,11.41,SJ,1600808025
Norman Wells,65.28,-126.83,51.8,62,75,6.93,CA,1600808026
Portobelo,9.55,-79.65,77.86,94,100,5.01,PA,1600808026
Bubaque,11.28,-15.83,81.45,80,0,9.73,GW,1600808026
Comodoro Rivadavia,-45.87,-67.5,66.2,34,20,17.22,AR,1600808026
General Roca,-39.03,-67.58,72.0,13,0,4.0,AR,1600807774
Khatanga,71.97,102.5,45.93,74,68,13.96,RU,1600807782
Grandview,38.89,-94.53,75.72,60,20,4.7,US,1600807892
Bereda,43.27,-7.54,62.64,99,84,1.99,ES,1600808027
Port Elizabeth,-33.92,25.57,51.8,93,0,5.82,ZA,1600807918
Ancud,-41.87,-73.82,55.99,71,18,1.01,CL,1600808027
Namatanai,-3.67,152.43,81.39,72,100,2.68,PG,1600807952
Richards Bay,-28.78,32.04,60.06,78,0,7.14,ZA,1600807895
Tubualá,9.52,-79.03,77.54,94,75,4.7,PA,1600808027
Tura,25.52,90.22,73.65,98,100,4.0,IN,1600807813
Alugan,12.22,125.48,77.22,89,69,3.83,PH,1600808027
Vestmanna,62.16,-7.17,42.8,87,99,8.05,FO,1600808028
Guánica,17.97,-66.91,85.3,67,100,6.22,PR,1600808028
Lebu,-37.62,-73.65,51.94,73,43,18.43,CL,1600808028
Vestmannaeyjar,63.44,-20.27,43.63,68,93,13.78,IS,1600808028
Nyimba,-14.56,30.81,73.81,46,0,17.11,ZM,1600808028
Punta Arenas,-53.15,-70.92,48.2,57,40,14.99,CL,1600808028
Aldan,58.6,125.39,35.4,83,0,1.57,RU,1600807855
Kapaa,22.08,-159.32,82.42,65,75,10.29,US,1600808029
Avera,33.19,-82.53,70.66,49,1,4.7,US,1600808029
Lüderitz,-26.65,15.16,66.97,31,0,9.35,NA,1600808029
Kavieng,-2.57,150.8,83.16,68,100,8.28,PG,1600808029
Hofn,64.25,-15.21,40.19,65,0,9.82,IS,1600807831
Prince George,53.92,-122.75,57.49,76,20,6.93,CA,1600808030
Santa Isabel,-23.32,-46.22,60.21,87,90,10.29,BR,1600808030
Muros,42.78,-9.06,64.54,92,97,8.99,ES,1600808030
Avarua,-21.21,-159.78,78.8,88,65,11.41,CK,1600808030
Lagoa,39.05,-27.98,68.58,83,85,13.8,PT,1600807890
Biak,-0.91,122.88,76.73,81,99,6.53,ID,1600807873
Varkala,8.73,76.71,77.0,100,75,4.7,IN,1600808030
Strezhevoy,60.73,77.59,37.4,93,20,11.18,RU,1600807821
Reserva,-24.65,-50.85,61.5,81,42,4.16,BR,1600808031
Mar del Plata,-38.0,-57.56,68.0,30,100,13.87,AR,1600808031
Umluj,25.02,37.27,87.49,45,0,4.59,SA,1600808031
Omboué,-1.57,9.26,75.22,84,99,8.28,GA,1600808031
Baijiantan,45.63,85.18,63.88,30,0,1.63,CN,1600808031
Torit,4.41,32.57,71.82,82,1,3.09,SS,1600808032
Puerto Ayora,-0.74,-90.35,70.0,82,82,8.99,EC,1600808032
Gumdag,39.21,54.59,66.96,25,0,15.61,TM,1600808032
Souillac,-20.52,57.52,69.8,73,20,5.82,MU,1600808032
Margate,51.38,1.39,62.91,62,20,1.99,GB,1600808014
Zuénoula,7.43,-6.04,74.43,87,66,3.47,CI,1600808033
Mexico,15.06,120.72,77.0,94,75,2.24,PH,1600807760
Huarmey,-10.07,-78.15,66.52,69,8,8.93,PE,1600808033
Vincennes,48.85,2.43,66.81,49,21,8.05,FR,1600808033
Kudahuvadhoo,2.67,72.89,81.95,78,97,11.83,MV,1600808033
Malbork,54.04,19.03,65.05,63,0,6.93,PL,1600808033
Vila Velha,-20.33,-40.29,77.0,83,75,11.41,BR,1600808033
Tsovak,40.18,45.63,53.13,76,54,8.77,AM,1600808034
Yong’an,39.7,113.69,53.96,82,100,5.61,CN,1600808034
Aripuanã,-9.17,-60.63,89.83,49,91,1.45,BR,1600808034
Port-Gentil,-0.72,8.78,76.15,86,100,14.23,GA,1600808034
Maningrida,-12.07,134.27,71.13,88,0,6.71,AU,1600808034
Gold Coast,-28.0,153.43,67.87,93,89,1.12,AU,1600808030
Careiro da Várzea,-3.2,-59.81,82.35,78,40,4.7,BR,1600808035
Bacungan,9.91,118.7,79.45,79,76,1.9,PH,1600808035
Nanortalik,60.14,-45.24,37.63,75,0,11.7,GL,1600808035
Iāwar,23.0,76.5,75.0,93,100,5.21,IN,1600808035
Hobart,-42.88,147.33,48.22,66,40,10.29,AU,1600808035
Kranuan,16.71,103.08,80.6,94,40,5.82,TH,1600808035
Matara,5.95,80.54,77.61,88,91,9.37,LK,1600808036
Saint-Philippe,-21.36,55.77,58.21,63,34,5.82,RE,1600808036
Chīrāla,15.82,80.35,79.63,82,29,12.06,IN,1600808036
Kununurra,-15.77,128.73,78.8,83,40,4.7,AU,1600808036
Tilichiki,60.47,166.1,36.36,80,1,5.32,RU,1600808037
Tasiilaq,65.61,-37.64,30.2,68,100,12.75,GL,1600808037
Coahuayana Viejo,18.73,-103.68,80.6,78,75,11.41,MX,1600808037
Marang,5.21,103.21,78.4,88,40,3.36,MY,1600808037
Mahébourg,-20.41,57.7,69.8,73,20,5.82,MU,1600808037
Harper,4.38,-7.72,76.35,86,58,10.22,LR,1600808038
Pochutla,15.74,-96.47,90.32,59,20,9.17,MX,1600808038
Bambous Virieux,-20.34,57.76,68.47,73,20,5.82,MU,1600808038
Bosaso,11.28,49.18,91.85,38,87,4.43,SO,1600807823
Egvekinot,66.32,-179.17,39.52,70,0,1.36,RU,1600808038
Kandrian,-6.22,149.55,78.24,86,95,2.39,PG,1600808038
Presidencia Roque Sáenz Peña,-26.79,-60.44,77.14,26,0,6.33,AR,1600808038
Okahandja,-21.98,16.92,73.4,11,26,3.36,NA,1600808039
Inongo,-1.95,18.27,73.17,84,59,5.3,CD,1600807878
Wewak,-3.55,143.63,77.16,86,100,6.53,PG,1600808039
Da Lat,11.95,108.44,59.95,100,54,1.32,VN,1600808039
Ketchikan,55.34,-131.65,54.3,76,90,23.04,US,1600808039
Chui,-33.7,-53.46,52.93,71,15,7.94,UY,1600808040
Baghlan,36.13,68.71,56.41,46,0,0.92,AF,1600808040
Port Hardy,50.7,-127.42,62.6,72,75,8.05,CA,1600807766
Itarema,-2.92,-39.92,78.35,77,0,18.75,BR,1600808040
Paita,-5.09,-81.11,67.69,72,11,17.4,PE,1600808040
Papara,-3.98,-38.73,80.29,74,20,10.29,BR,1600808040
Nizwá,22.93,57.53,83.8,15,79,3.02,OM,1600807987
Hamilton,39.18,-84.53,74.39,35,1,4.7,US,1600807865
Eureka,40.8,-124.16,68.41,76,28,4.0,US,1600808041
Chicama,-7.84,-79.15,71.01,60,25,9.55,PE,1600808041
Marsabit,2.33,37.99,69.08,62,22,23.35,KE,1600808041
Mikkeli,61.69,27.27,46.63,100,75,1.61,FI,1600808041
Ahvāz,31.32,48.67,80.6,36,0,2.24,IR,1600808041
Tuktoyaktuk,69.45,-133.04,39.2,86,90,4.7,CA,1600808042
Verkhnevilyuysk,63.45,120.32,40.12,90,0,3.04,RU,1600808042
Manyana,-23.4,21.72,70.88,47,47,19.48,BW,1600808042
Upernavik,72.79,-56.15,27.48,85,56,4.25,GL,1600807766
Narón,43.52,-8.15,62.76,93,75,9.17,ES,1600808042
Sitka,57.05,-135.33,57.2,58,90,20.8,US,1600808042
Vanavara,60.34,102.28,37.94,93,0,3.65,RU,1600808042
Okmulgee,35.62,-95.96,68.0,100,90,6.93,US,1600808043
Honningsvåg,70.98,25.97,46.4,75,40,20.8,NO,1600808043
Bredasdorp,-34.53,20.04,48.2,93,30,2.24,ZA,1600808043
Salina Cruz,16.17,-95.2,92.05,50,0,15.82,MX,1600808043
Qaanaaq,77.48,-69.36,14.23,81,0,8.03,GL,1600808044
Kodinsk,58.69,99.18,39.61,84,100,5.39,RU,1600808044
St. George's,12.06,-61.75,89.6,70,20,14.99,GD,1600807932
Rusape,-18.53,32.13,53.98,95,17,5.95,ZW,1600808044
Provideniya,64.38,-173.3,41.0,66,1,2.24,RU,1600808044
Angoche,-16.23,39.91,74.89,82,2,13.4,MZ,1600808044
Kenai,60.55,-151.26,51.78,66,90,23.04,US,1600808045
Padang,-0.95,100.35,79.11,75,89,4.18,ID,1600808045
Khani,41.96,42.96,66.2,88,55,4.7,GE,1600808045
Laas,46.62,10.7,57.2,93,75,3.36,IT,1600807841
Smolenka,52.14,113.5,32.0,87,91,3.67,RU,1600808045
San Quintín,30.48,-115.95,80.1,50,0,13.89,MX,1600808046
Kawanoechō,34.02,133.57,70.0,83,100,5.19,JP,1600808047
Ust-Maya,60.42,134.53,36.12,83,0,1.1,RU,1600808047
Lębork,54.54,17.75,64.18,63,0,6.93,PL,1600808047
Kieta,-6.22,155.63,81.23,71,100,3.31,PG,1600807823
Ilhabela,-23.78,-45.36,64.13,86,100,11.18,BR,1600808048
Touros,-5.2,-35.46,78.8,74,20,11.41,BR,1600808049
Zhezkazgan,47.8,67.71,49.53,49,98,5.93,KZ,1600808050
Severo-Kuril'sk,50.68,156.12,49.03,83,47,10.98,RU,1600807858
Bloemfontein,-29.12,26.21,53.6,58,0,7.63,ZA,1600808050
Vangaindrano,-23.35,47.6,69.55,86,96,10.65,MG,1600808052
Pisco,-13.7,-76.22,65.1,77,7,9.17,PE,1600808052
Hithadhoo,-0.6,73.08,81.99,68,30,8.25,MV,1600808052
Tucuruí,-3.77,-49.67,90.59,46,91,1.12,BR,1600807764
Chernyshevskiy,63.01,112.47,39.7,94,0,3.18,RU,1600808053
Burnie,-41.07,145.92,48.85,83,87,11.99,AU,1600808053
Kupang,-10.17,123.58,76.05,84,85,9.13,ID,1600808053
Bosobolo,4.18,19.9,71.38,95,98,3.51,CD,1600808053
Ilulissat,69.22,-51.1,26.6,68,40,1.12,GL,1600807921
Westport,41.14,-73.36,69.49,24,1,17.22,US,1600808054
Kloulklubed,7.04,134.26,75.2,94,75,4.7,PW,1600808054
Oyotún,-6.85,-79.3,69.8,64,35,19.46,PE,1600808054
Maţāy,28.42,30.78,79.99,61,0,21.43,EG,1600808054
Churapcha,62.0,132.43,36.05,86,0,2.95,RU,1600808055
Pangnirtung,66.15,-65.71,41.0,44,40,6.93,CA,1600807933
Ust-Kuyga,70.02,135.6,36.93,82,20,5.26,RU,1600808055
Dourbali,11.81,15.86,80.87,61,11,7.81,TD,1600808055
Yar-Sale,66.83,70.83,38.23,83,73,13.51,RU,1600808055
Krasnosel'kup,65.7,82.47,42.66,83,98,14.85,RU,1600808055
Yakovlevka,44.42,133.48,49.01,93,100,2.01,RU,1600808056
Treuchtlingen,48.95,10.92,60.53,82,75,1.12,DE,1600808056
Port Moresby,-9.44,147.18,76.6,88,98,5.48,PG,1600808056
Kondinskoye,59.65,67.41,39.18,82,100,15.73,RU,1600808056
Miyako,39.64,141.95,64.85,83,100,1.03,JP,1600808056
Viedma,-40.81,-63.0,64.0,30,78,5.77,AR,1600807873
Baft,29.23,56.61,60.76,31,0,13.06,IR,1600808057
Tiarei,-17.53,-149.33,84.2,66,20,16.11,PF,1600808057
Coyhaique,-45.58,-72.07,51.8,63,40,11.41,CL,1600808058
Kanniyākumāri,8.08,77.57,78.62,85,63,18.72,IN,1600808058
Codrington,-38.27,141.97,48.87,88,92,9.13,AU,1600808058
Kramat,-8.13,113.45,74.59,88,81,0.83,ID,1600808059
Killybegs,54.63,-8.45,50.0,95,100,1.01,IE,1600807846
Mabaruma,8.2,-59.78,83.12,76,60,5.26,GY,1600808059
Pingliang,35.54,106.69,49.53,88,0,0.58,CN,1600808059
Anadyr,64.75,177.48,35.6,93,48,8.95,RU,1600808059
Half Moon Bay,37.46,-122.43,74.12,72,1,10.29,US,1600808018
Monte Alegre de Sergipe,-10.03,-37.56,75.69,68,70,14.43,BR,1600808059
Gao,16.64,1.64,91.45,32,8,4.83,ML,1600808060
Kargasok,59.06,80.86,37.94,88,69,7.99,RU,1600808060
Fortuna,40.6,-124.16,68.5,68,20,10.29,US,1600808060
Beringovskiy,63.05,179.32,42.21,64,32,6.71,RU,1600808061
Yangi Marg`ilon,40.43,71.72,57.2,67,0,2.24,UZ,1600808061
Praia da Vitória,38.73,-27.07,68.0,77,20,11.45,PT,1600807866
Madison,34.73,-86.57,73.4,46,75,2.13,US,1600807797
Cabo San Lucas,22.89,-109.91,88.21,74,20,6.93,MX,1600807953
La Joya,18.67,-99.47,81.52,61,40,6.93,MX,1600808061
Berlevåg,70.86,29.09,42.13,93,75,6.93,NO,1600807842
Thunder Bay,48.4,-89.32,77.47,31,5,8.05,CA,1600807902
Necochea,-38.55,-58.74,66.0,46,47,15.01,AR,1600808061
Saldanha,-33.01,17.94,53.6,71,0,5.82,ZA,1600808062
Coquimbo,-29.95,-71.34,55.4,87,75,11.41,CL,1600808062
Kruisfontein,-34.0,24.73,49.62,87,0,0.54,ZA,1600808062
Los Llanos de Aridane,28.66,-17.92,72.64,88,40,3.36,ES,1600807960
Bethel,41.37,-73.41,67.08,22,1,11.41,US,1600807951
Caravelas,-17.71,-39.25,75.18,82,67,8.68,BR,1600808062
Olinda,-8.01,-34.86,80.6,69,40,10.29,BR,1600808062
Petropavlovsk-Kamchatskiy,53.05,158.65,44.6,100,75,4.47,RU,1600808063
Cidreira,-30.18,-50.21,58.03,69,0,15.61,BR,1600808064
Clyde River,70.47,-68.59,32.0,91,20,6.93,CA,1600808064
Sorong,-0.88,131.25,78.08,84,100,2.35,ID,1600807791
Harlingen,26.19,-97.7,89.22,59,75,10.29,US,1600808065
Mayo,38.89,-76.51,70.23,35,1,9.17,US,1600808065
Ngunguru,-35.62,174.5,57.99,95,31,5.99,NZ,1600807800
Inhambane,-23.86,35.38,64.65,76,15,8.93,MZ,1600808066
Lincoln,40.8,-96.67,82.94,37,1,13.87,US,1600808066
Røros,62.57,11.38,50.0,76,100,6.93,NO,1600808066
La Seyne-sur-Mer,43.1,5.88,63.63,80,20,6.06,FR,1600808067
Nicoya,10.15,-85.45,84.2,83,40,10.29,CR,1600808067
Koygorodok,60.45,51.0,40.55,86,0,10.22,RU,1600808067
Santiago del Estero,-27.8,-64.26,84.52,16,0,14.65,AR,1600807842
Elko,41.0,-115.5,79.18,7,33,11.99,US,1600808069
Kemijärvi,66.71,27.43,37.08,80,65,6.13,FI,1600808069
College,64.86,-147.8,46.51,70,75,1.36,US,1600808069
Saint-Joseph,-21.37,55.62,59.5,63,19,5.82,RE,1600807900
Ashtabula,41.7,-80.77,68.83,42,1,4.7,US,1600807926
Singaraja,-8.11,115.09,78.35,74,6,5.91,ID,1600808015
Bilibino,68.05,166.44,33.6,87,100,3.11,RU,1600808069
Ostrovnoy,68.05,39.51,42.04,83,65,13.69,RU,1600808070
Marsh Harbour,26.54,-77.06,80.17,68,12,20.09,BS,1600808070
Sibolga,1.74,98.78,77.23,83,100,3.76,ID,1600808070
Mount Gambier,-37.83,140.77,46.4,100,75,4.7,AU,1600808070
Hastings,50.86,0.57,62.4,87,23,1.99,GB,1600808070
Hanzhong,33.07,107.03,56.16,88,63,0.89,CN,1600808071
Faya,18.39,42.45,72.5,15,3,7.25,SA,1600807798
Verkhnyaya Inta,65.98,60.31,37.81,79,100,5.1,RU,1600808071
Gamboula,4.12,15.14,71.02,95,93,3.09,CF,1600808071
Iquitos,-3.75,-73.25,86.0,66,75,8.05,PE,1600808071
Olovyannaya,50.95,115.57,37.71,86,0,5.26,RU,1600808071
San Cristobal,7.77,-72.22,93.2,41,40,6.93,VE,1600808072
Conil,44.97,3.72,48.42,100,73,2.86,FR,1600808072
Kahului,20.89,-156.47,83.48,45,40,14.99,US,1600807881
Agronom,45.14,39.19,62.13,55,0,8.95,RU,1600808073
Vao,-22.67,167.48,70.14,81,4,13.29,NC,1600808073
Geraldton,-28.77,114.6,46.4,100,0,5.82,AU,1600808074
South Lake Tahoe,38.93,-119.98,74.93,18,1,10.29,US,1600808045
Zhicheng,30.3,111.5,62.01,94,88,3.47,CN,1600808074
Soubre,5.79,-6.61,71.96,97,47,4.54,CI,1600808074
Thinadhoo,0.53,72.93,82.06,69,12,8.28,MV,1600808074
Ayagoz,47.97,80.44,48.29,46,100,8.63,KZ,1600808074
Shebunino,46.43,141.86,51.19,82,6,8.12,RU,1600808075
Natal,-5.79,-35.21,79.74,69,20,14.99,BR,1600807789
Talara,-4.58,-81.27,66.72,78,2,14.32,PE,1600808077
Tulum,20.22,-87.47,90.5,62,20,10.29,MX,1600808077
Benidorm,38.54,-0.13,73.33,55,100,8.84,ES,1600808069
Santa Cruz de la Sierra,-17.8,-63.17,83.08,23,0,2.24,BO,1600807853
Mutatá,7.24,-76.44,83.55,78,97,2.82,CO,1600808078
Sikonge,-5.63,32.77,74.61,43,30,8.99,TZ,1600808079
São João da Barra,-21.64,-41.05,69.8,94,90,12.75,BR,1600807872
Guilin,25.28,110.29,69.8,94,90,2.24,CN,1600808079
Rosário do Sul,-30.26,-54.91,61.23,74,0,8.41,BR,1600808080
Amahai,-3.33,128.92,82.99,94,10,2.66,ID,1600808080
Lázaro Cárdenas,17.96,-102.2,85.26,72,92,9.66,MX,1600808080
Nānākuli,21.39,-158.15,83.03,51,1,11.41,US,1600808080
Enid,36.4,-97.88,69.85,100,90,8.05,US,1600808081
Soma,39.19,27.61,68.61,77,27,4.7,TR,1600808081
Manhuaçu,-20.26,-42.03,67.55,84,100,0.89,BR,1600808081
Whitehorse,60.72,-135.05,51.8,53,75,14.99,CA,1600808081
Christchurch,-43.53,172.63,60.8,63,23,4.7,NZ,1600807897
Maniitsoq,65.42,-52.9,33.87,88,60,3.78,GL,1600808082
Kavaratti,10.57,72.64,81.5,79,75,21.61,IN,1600808025
Lavrentiya,65.58,-171.0,38.98,87,91,7.9,RU,1600808082
Kumul,42.8,93.45,63.39,41,0,4.79,CN,1600808082
Klaksvík,62.23,-6.59,42.8,87,99,8.05,FO,1600807840
Cap Malheureux,-19.98,57.61,66.99,75,11,5.01,MU,1600808083
Oranjestad,12.52,-70.03,91.4,63,20,14.99,AW,1600807989
Waingapu,-9.66,120.26,76.89,60,93,3.18,ID,1600807901
Kralendijk,12.15,-68.27,89.6,70,40,17.22,BQ,1600808083
Sardhana,29.15,77.62,79.65,81,65,7.11,IN,1600808083
Flinders,-34.58,150.86,58.28,60,0,3.0,AU,1600808083
Grand Gaube,-20.01,57.66,66.99,75,14,5.01,MU,1600808083
Gravdal,68.12,13.5,39.2,80,40,3.36,NO,1600808083
Ayorou,14.73,0.92,91.17,38,54,12.24,NE,1600808084
Olafsvik,64.89,-23.71,41.94,71,100,16.96,IS,1600807883
Marzuq,14.4,46.47,80.19,35,84,5.68,YE,1600808084
Bogorodskoye,56.55,37.88,52.74,85,87,10.13,RU,1600808084
Paamiut,61.99,-49.67,37.4,80,0,15.75,GL,1600808084
Ekuvukeni,-28.47,30.16,52.38,68,0,2.39,ZA,1600808084
The Valley,18.22,-63.06,88.07,62,20,9.17,AI,1600808086
Korla,41.76,86.15,61.86,31,0,1.25,CN,1600808082
Rome,43.21,-75.46,64.8,45,1,10.29,US,1600807925
Hammerfest,70.66,23.68,42.8,81,75,33.33,NO,1600807830
Rawson,-43.3,-65.1,63.14,30,0,14.05,AR,1600808086
Batemans Bay,-35.72,150.18,48.49,69,0,5.99,AU,1600808086
Marystown,47.17,-55.15,52.0,100,100,8.99,CA,1600808086
Sumbawanga,-7.97,31.62,65.46,47,59,7.72,TZ,1600808086
Petalcingo,17.28,-92.45,86.0,79,75,3.06,MX,1600808087
Oussouye,12.48,-16.55,84.2,83,75,6.93,SN,1600808087
Chake Chake,-5.25,39.77,76.35,86,80,10.29,TZ,1600808087
Acapulco de Juárez,16.86,-99.89,87.8,70,5,8.05,MX,1600807949
Payakumbuh,-0.22,100.63,70.84,85,94,0.2,ID,1600808087
Borgarnes,64.54,-21.92,36.9,80,75,4.7,IS,1600808087
Prattville,32.46,-86.46,72.82,64,90,3.36,US,1600808035
Shevchenkove,49.7,37.17,53.31,54,1,3.06,UA,1600808088
Arrondissement de Riom,45.92,2.92,60.8,72,100,4.7,FR,1600807888
São Mateus do Maranhão,-4.04,-44.48,90.72,35,3,2.93,BR,1600808088
Sarankhola,22.31,89.79,80.58,91,100,9.51,BD,1600808088
Balakhta,55.38,91.6,47.68,89,93,4.38,RU,1600808088
Vila Franca do Campo,37.72,-25.43,68.0,77,20,8.05,PT,1600808088
Mahuta,-10.87,39.45,65.26,95,0,4.03,TZ,1600808089
Hualmay,-11.1,-77.61,65.77,70,19,9.01,PE,1600808089
Dubrovnik,42.65,18.09,64.4,82,20,10.29,HR,1600807845
Teya,60.38,92.63,44.4,88,72,3.13,RU,1600808089
Omsukchan,62.53,155.8,32.86,85,0,2.46,RU,1600808089
Mossamedes,-15.2,12.15,64.53,88,60,4.54,AO,1600808089
Nogliki,51.83,143.17,42.93,75,0,4.81,RU,1600808089
Gävle,60.67,17.14,52.0,78,100,5.01,SE,1600808090
San Policarpo,12.18,125.51,77.63,88,67,4.0,PH,1600808090
Makkah al Mukarramah,21.43,39.83,87.82,22,0,6.02,SA,1600808090
Butterworth,5.4,100.36,77.0,94,40,5.82,MY,1600808090
Iqaluit,63.75,-68.51,33.8,92,90,10.29,CA,1600807855
Yulara,-25.24,130.99,55.4,49,0,8.05,AU,1600807898
Huangpi,30.88,114.38,62.6,100,90,4.47,CN,1600808091
Xinpu,34.6,119.16,67.37,74,100,4.5,CN,1600808092
Solnechnyy,50.72,136.63,42.87,82,19,2.24,RU,1600808092
Salalah,17.02,54.09,80.6,88,75,5.82,OM,1600808092
Arlit,18.74,7.39,96.8,17,0,7.87,NE,1600808092
Tres Arroyos,-38.37,-60.28,64.36,59,4,9.8,AR,1600808092
Mitsamiouli,-11.38,43.28,78.76,72,11,7.27,KM,1600808093
La Libertad,-2.23,-80.9,71.6,78,75,11.41,EC,1600808093
Podporozh'ye,60.91,34.17,44.58,83,95,3.65,RU,1600808093
Khorixas,-20.37,14.97,57.81,52,3,1.16,NA,1600808093
Garoowe,8.41,48.48,80.15,51,80,24.2,SO,1600808094
Kamenka,51.32,42.77,55.0,68,12,8.77,RU,1600808094
Ixtapa,20.7,-105.2,88.41,74,20,8.05,MX,1600808095
Saint George,37.1,-113.58,92.64,19,1,3.36,US,1600807951
Nhulunbuy,-12.23,136.77,71.6,88,42,7.94,AU,1600808095
Oddur,4.12,43.89,76.51,61,100,19.13,SO,1600808096
Porto Walter,-8.27,-72.74,82.17,83,99,2.66,BR,1600808096
Bengkulu,-3.8,102.27,76.96,84,82,6.8,ID,1600808096
Dom Pedro,-4.48,-44.45,90.36,36,2,2.51,BR,1600807849
Baie-Comeau,49.22,-68.15,51.8,71,1,5.82,CA,1600807810
Tual,-5.67,132.75,81.05,80,69,18.77,ID,1600808097
Santiago,-33.46,-70.65,79.65,24,100,8.05,CL,1600807862
Abhā,18.22,42.51,72.55,15,2,8.88,SA,1600808097
Torbay,47.67,-52.73,50.29,87,90,16.11,CA,1600808097
Nioki,-2.72,17.68,74.5,88,67,2.01,CD,1600808097
Severnoye,56.35,78.36,41.02,79,100,8.23,RU,1600808098
Peñarroya-Pueblonuevo,38.3,-5.27,71.83,53,100,5.82,ES,1600808098
Roald,62.58,6.13,53.58,93,75,5.82,NO,1600808098
Lima,-12.04,-77.03,66.49,64,75,8.05,PE,1600807840
Daokou,35.56,114.51,65.79,74,95,3.96,CN,1600808098
Prince Albert,53.2,-105.77,68.0,40,40,10.29,CA,1600808098
Fort Nelson,58.81,-122.7,53.6,50,75,3.36,CA,1600808098
Ponta Delgada,37.73,-25.67,68.0,77,20,8.05,PT,1600808099
Enshi,30.3,109.48,60.93,85,89,0.96,CN,1600808099
Nouadhibou,20.93,-17.03,77.0,78,0,14.99,MR,1600808099
Sinnamary,5.38,-52.95,81.63,77,7,15.55,GF,1600808099
Ouallam,14.32,2.09,86.5,50,0,8.25,NE,1600808099
Yabēlo,4.88,38.08,66.15,55,52,6.89,ET,1600808099
Prince Rupert,54.32,-130.32,57.2,62,1,9.17,CA,1600808100
Santa Maria,-29.68,-53.81,68.0,52,0,11.41,BR,1600808100
Poronaysk,49.22,143.12,45.73,87,43,3.15,RU,1600808100
Rantepao,-2.97,119.9,65.88,90,80,1.43,ID,1600808100
Mayor Pablo Lagerenza,-19.93,-60.77,83.91,35,0,5.53,PY,1600808100
Parabel',58.7,81.48,38.3,84,98,7.52,RU,1600808100
Bathsheba,13.22,-59.52,87.8,66,40,12.75,BB,1600808101
Wanaka,-44.7,169.15,46.99,88,49,5.46,NZ,1600808101
Hay River,60.82,-115.8,60.8,48,20,11.41,CA,1600808101
Boende,-0.22,20.87,73.17,92,0,3.02,CD,1600808101
Mbanza-Ngungu,-5.25,14.87,77.36,61,28,10.83,CD,1600808101
Voka,59.4,27.58,51.6,89,73,8.61,EE,1600808102
Tautira,-17.73,-149.15,84.2,66,20,16.11,PF,1600807825
Byron Bay,-28.65,153.62,67.17,88,87,5.86,AU,1600808102
Naryan-Mar,67.67,53.09,41.27,94,100,7.85,RU,1600808102
Banda Aceh,5.56,95.32,80.29,76,100,4.36,ID,1600808102
Taoudenni,22.68,-3.98,100.53,9,0,7.9,ML,1600807972
Shimoda,34.67,138.95,63.0,96,100,5.01,JP,1600807887
Fortuna Foothills,32.66,-114.41,102.07,21,1,6.93,US,1600808102
Podgornoye,51.73,39.15,55.4,54,18,6.71,RU,1600808103
Zapolyarnyy,69.42,30.81,42.8,81,40,35.57,RU,1600808103
Bambanglipuro,-7.95,110.28,75.6,88,52,4.7,ID,1600807856
Agadez,19.75,10.25,87.13,17,0,8.34,NE,1600807822
Boysun,38.21,67.2,52.88,43,0,2.42,UZ,1600808103
Hasaki,35.73,140.83,67.68,94,75,6.93,JP,1600807804
Ejido,8.55,-71.24,78.33,51,97,3.4,VE,1600808104
Kindu,-2.95,25.95,74.26,79,89,1.79,CD,1600808104
Valdivia,-39.81,-73.25,60.8,48,40,5.82,CL,1600807933
Laguna,38.42,-121.42,85.05,36,1,9.17,US,1600808104
Indiana,40.0,-86.25,76.32,44,1,3.36,US,1600808104
Honnāli,14.25,75.67,71.44,88,85,11.45,IN,1600808104
Maceió,-9.67,-35.74,78.8,74,23,12.75,BR,1600808104
Qaqortoq,60.72,-46.03,41.0,35,0,3.36,GL,1600808038
Tambacounda,13.75,-13.76,86.0,84,20,2.24,SN,1600808105
Bariloche,-41.15,-71.31,51.8,37,1,24.16,AR,1600808105
Sivas Province,39.79,37.0,51.8,93,0,9.17,TR,1600808105
Palenque/Temp,17.52,-91.97,86.0,79,75,6.02,MX,1600808105
Gorahun,7.47,-11.24,73.09,98,98,2.91,SL,1600808106
Labuhan,-6.88,112.21,78.08,84,97,10.58,ID,1600808106
Oranjemund,-28.55,16.43,66.45,30,0,12.48,NA,1600808106
Mwinilunga,-11.74,24.43,67.73,30,89,4.45,ZM,1600808106
Médéa,36.26,2.75,69.8,83,100,2.24,DZ,1600808106
Atar,20.52,-13.05,96.04,27,0,6.35,MR,1600808106
Victor Harbor,-35.57,138.62,48.0,87,17,13.22,AU,1600808107
Fougamou,-1.22,10.58,73.71,92,100,2.84,GA,1600808108
Sungai Raya,0.7,108.9,76.44,79,97,4.0,ID,1600808108
Whitianga,-36.83,175.7,61.0,87,73,4.0,NZ,1600808108
Cururupu,-1.83,-44.87,78.21,78,80,4.7,BR,1600808108
Kütahya,39.42,29.98,62.6,77,0,9.17,TR,1600807879
Nova Olímpia,-14.8,-57.29,95.36,28,22,4.23,BR,1600808108
Kalmar,56.66,16.36,52.99,100,1,5.82,SE,1600807891
Saint-Augustin,51.23,-58.65,52.92,65,100,13.35,CA,1600808109
Gayéri,12.65,0.49,78.35,74,66,4.5,BF,1600808109
North Bend,43.41,-124.22,67.66,68,1,8.05,US,1600808102
Amazar,53.86,120.88,46.81,91,100,7.38,RU,1600808109
Panama City,8.99,-79.52,76.53,100,40,4.7,PA,1600807823
Turukhansk,65.82,87.98,46.9,85,100,12.21,RU,1600807912
Amuntai,-2.42,115.25,72.77,98,100,0.81,ID,1600808109
Aykhal,66.0,111.5,41.0,65,0,4.47,RU,1600808110
Shirochanskoye,46.65,38.4,61.34,31,0,10.25,RU,1600808110
Nishihara,26.18,127.76,78.26,94,20,9.13,JP,1600808110
Prabumulih,-3.45,104.25,75.18,87,92,0.31,ID,1600808110
Forsytheganj,52.63,29.73,56.1,72,0,6.4,BY,1600808110
Aksu,41.12,80.26,62.33,30,6,4.34,CN,1600808110
Makakilo City,21.35,-158.09,83.3,51,1,11.41,US,1600808085
Billings Metropolitan Area,45.78,-108.5,77.83,17,75,7.74,US,1600808112
Catabola,-12.15,17.28,70.5,55,63,4.41,AO,1600808112
Zliten,32.47,14.57,82.17,58,5,15.41,LY,1600808112
Tucupita,9.06,-62.05,88.68,64,80,4.09,VE,1600808112
Gizo Government Station,-8.1,156.84,82.67,74,27,7.36,SB,1600808112
Augusto Corrêa,-1.02,-46.63,79.47,74,22,7.02,BR,1600808113
Charlestown,-32.95,151.67,58.35,62,0,10.54,AU,1600807958
La Rioja,42.25,-2.5,66.2,72,75,1.12,ES,1600808113
Bastrop,32.76,-91.87,66.54,100,90,3.36,US,1600808114
Wagar,16.15,36.2,94.48,17,8,4.61,SD,1600808114
Belfast,54.58,-5.93,53.53,87,100,8.05,GB,1600808114
Baoqing,46.33,132.21,52.21,93,100,5.41,CN,1600808114
Usinsk,65.99,57.53,38.84,98,100,8.55,RU,1600808114
Lompoc,34.64,-120.46,64.18,72,1,19.46,US,1600808115
Dhidhdhoo,6.88,73.1,82.11,77,100,16.37,MV,1600808115
Deputatsky,69.3,139.9,34.25,92,90,4.47,RU,1600808115
Córdoba,-31.41,-64.18,77.2,15,0,24.16,AR,1600808115
Okhotsk,59.38,143.3,44.2,86,0,4.25,RU,1600808116
Colares,38.8,-9.45,67.84,94,40,8.05,PT,1600808116
Raahe,64.68,24.48,44.11,81,97,4.7,FI,1600808117
Tupiza,-21.45,-65.72,67.28,19,0,7.85,BO,1600808117
Imbituba,-28.24,-48.67,62.6,55,75,8.05,BR,1600807889
Malpe,13.35,74.72,75.2,94,75,13.6,IN,1600808117
Karasjok,69.47,25.51,41.0,87,45,33.33,NO,1600808117
Jumla,29.27,82.18,60.17,69,95,2.91,NP,1600808118
Vilhena,-12.74,-60.15,85.41,43,19,3.24,BR,1600808119
Valparaíso,-33.04,-71.63,69.91,23,100,17.22,CL,1600808119
Williams Lake,52.14,-122.14,59.0,62,40,9.17,CA,1600808120
Zhigansk,66.77,123.37,37.54,80,13,3.4,RU,1600808121
Zitlala,17.63,-99.08,72.43,73,23,2.28,MX,1600808121
Montreal,45.51,-73.59,64.99,42,5,6.93,CA,1600808063
Yarensk,62.17,49.09,39.45,83,1,8.68,RU,1600808121
Katherine,-14.47,132.27,78.8,69,6,3.36,AU,1600808122
Padre Paraíso,-17.07,-41.48,75.63,56,51,5.82,BR,1600808122
Haines Junction,60.75,-137.51,48.25,63,100,3.47,CA,1600808122
Rānāghāt,23.18,88.58,82.4,94,40,4.7,IN,1600808122
Kawalu,-7.38,108.21,71.06,93,75,1.34,ID,1600808122
São Gabriel da Cachoeira,-0.13,-67.09,84.4,76,100,1.79,BR,1600807989
Kaeo,-35.1,173.78,57.99,95,18,5.99,NZ,1600808123
Ják,47.14,16.58,60.8,93,100,4.41,HU,1600808123
Marawi,8.0,124.29,75.0,85,100,7.0,PH,1600808123
Salem,11.65,78.17,72.46,84,38,2.08,IN,1600807933
Shubarshi,48.59,57.19,52.48,66,76,8.81,KZ,1600808123
Broken Hill,-31.95,141.43,50.0,71,0,8.05,AU,1600808124
Pattani,6.75,100.42,75.2,100,20,2.24,TH,1600808124
Sevsk,52.15,34.49,54.27,70,0,6.62,RU,1600808124
Plettenberg Bay,-34.05,23.37,55.67,69,0,5.03,ZA,1600808124
Lata,40.16,-8.33,66.87,88,20,4.7,PT,1600808124
Mīnāb,27.15,57.08,84.2,70,0,11.41,IR,1600807864
Yermish',54.77,42.27,53.15,85,1,10.8,RU,1600808125
Terney,45.05,136.61,53.06,81,83,5.88,RU,1600808125
Narsaq,60.92,-46.05,41.0,35,0,3.36,GL,1600808125
Manaure,11.78,-72.44,87.8,74,40,9.17,CO,1600808125
Sayyan,15.17,44.32,64.02,42,85,1.9,YE,1600808126
Pierre,44.37,-100.35,89.28,29,1,16.11,US,1600807847
Los Baños,14.17,121.18,77.9,100,40,1.81,PH,1600808126
San Pedro Garza García,25.67,-100.4,86.79,40,5,4.7,MX,1600808126
Salò,45.61,10.53,63.9,93,100,1.12,IT,1600808127
Rouvroy,50.39,2.9,63.05,52,10,8.05,FR,1600808127
Wanning,18.8,110.4,78.87,84,78,2.26,CN,1600808127
Bugasong,11.04,122.07,78.78,79,56,4.09,PH,1600808127
Fairbanks,64.84,-147.72,46.53,70,1,1.32,US,1600808127
Tazovsky,67.47,78.7,41.22,91,100,11.34,RU,1600808127
Roebourne,-20.78,117.13,67.82,24,0,12.46,AU,1600808128
Fallon,39.47,-118.78,85.05,9,1,4.7,US,1600808128
Rocha,-34.48,-54.33,54.21,75,54,5.97,UY,1600808128
Kot Addu,30.47,70.97,87.8,58,0,1.23,PK,1600808128
Yambio,4.57,28.4,69.31,95,1,1.16,SS,1600808050
Xaltianguis,17.07,-99.83,87.8,70,5,8.05,MX,1600808128
Road Town,18.42,-64.62,83.34,87,100,1.01,VG,1600808129
Mason City,43.15,-93.2,80.55,42,1,9.17,US,1600808129
San Carlos,9.66,-68.58,85.86,70,91,1.83,VE,1600808129
Santa Rosalía,27.32,-112.28,90.07,51,0,10.49,MX,1600808015
